{
  "locations": [
    {
      "id": "P1",
      "name": "Lisbon",
      "type": "City",
      "position": { "latitude":  38.7098, "longitude": -9.1333 },
      "services": ["Restaurant", "Groceries", "Pharmacy", "Medical", "Bank", "Train", "Bus" ],
      "accommodation": []
    },
    {
      "id": "P2",
      "name": "Parque das Nações",
      "type": "City",
      "position": { "latitude":  38.7629, "longitude": -9.0982 },
      "services": ["Restaurant", "Groceries", "Pharmacy", "Medical", "Bank", "Train", "Bus"],
      "accommodation": [
        {
          "name": "Pousada de Juventude do Parque das Nações",
          "type": "Hotel",
          "services": ["Heating", "WiFi", "Lockers", "Bedlinen"],
          "sleeping": ["Shared"]
        },
        {
          "name": "Hotel Ibis Parque das Nações",
          "type": "Hotel",
          "services": ["Heating", "WiFi", "Breakfast", "Restaurant", "Accessible", "Bedlinen", "Towels"],
          "sleeping": ["DoubleWC"]
        }
      ]
    },
    {
      "id": "P3",
      "name": "Sacavém",
      "type": "City",
      "position": { "latitude":  38.79685, "longitude": -9.1047 },
      "services": ["Restaurant", "Pharmacy", "Train", "Bus"],
      "accommodation": [
      ]
    },
    {
      "id": "P4",
      "name": "Granja",
      "type": "Town",
      "position": { "latitude":  38.8581, "longitude": -9.1075 },
      "services": ["Restaurant", "Bus"],
      "accommodation": [
      ]
    },
    {
      "id": "P5",
      "name": "Alpriate",
      "type": "Town",
      "position": { "latitude":  38.8634, "longitude": -9.0920 },
      "services": ["Restaurant", "Groceries", "Pharmacy", "Bus"],
      "accommodation": [
      ]
    },
    {
      "id": "P6",
      "name": "São João de Talha",
      "type": "Town",
      "position": { "latitude":  38.8257, "longitude": -9.0975 },
      "services": ["Restaurant", "Pharmacy"],
      "accommodation": [
      ]
    },
    {
      "id": "P7",
      "name": "Santa Iria de Azoia",
      "type": "Town",
      "position": { "latitude":  38.8378, "longitude": -9.0827 },
      "services": ["Restaurant", "Groceries", "Pharmacy", "Train" ],
      "accommodation": [
        {
          "name": "VIP Executive Santa Iria",
          "type": "Hotel",
          "services": ["Heating", "WiFi", "Breakfast", "Restaurant", "Accessible", "Bedlinen", "Towels"],
          "sleeping": ["DoubleWC"]
        }
      ]
    },
    {
      "id": "P8",
      "name": "Póvoa de Santa Iria",
      "type": "Town",
      "position": { "latitude":  38.8663, "longitude": -9.0597 },
      "services": ["Restaurant", "Groceries", "Pharmacy", "Train", "Bus"],
      "accommodation": [
      ]
    },
    {
      "id": "P9",
      "name": "Alverca do Ribatejo",
      "type": "Town",
      "position": { "latitude":  38.8995, "longitude": -9.0371 },
      "services": ["BicycleRepair", "Restaurant", "Groceries", "Pharmacy", "Medical", "Bank", "Train", "Bus"],
      "accommodation": [
        {
          "name": "Silvina Ferreira Guesthouse",
          "type": "GuestHouse",
          "services": ["Heating", "WiFi", "BicycleStorage", "Bedlinen", "Towels"],
          "sleeping": ["Single", "DoubleWC"]
        },
        {
          "name": "Alojamento Sol Rio",
          "type": "GuestHouse",
          "services": ["WiFi", "Bedlinen", "Towels", "Breakfast", "Restaurant"],
          "sleeping": ["Single", "Double", "Triple"]
        },
        {
          "name": "Hospedaria Alfa 10",
          "type": "PrivateAlbergue",
          "services": ["WiFi", "Handwash", "Bedlinen", "Towels"],
          "sleeping": ["Single", "Double", "DoubleWC"]
        }
      ]
    },
    {
      "id": "P10",
      "name": "Sobralinho",
      "type": "Town",
      "position": { "latitude": 38.9134, "longitude": -9.0236 },
      "services": ["Restaurant", "Pharmacy"],
      "accommodation": [
      ]
    },
    {
      "id": "P11",
      "name": "Alhandra",
      "type": "Town",
      "position": { "latitude": 38.9284, "longitude": -9.0098 },
      "services": ["Restaurant", "Groceries", "Pharmacy", "Medical", "Bank", "Train" ],
      "accommodation": [
      ]
    },
    {
      "id": "P12",
      "name": "Vila Franca de Xira",
      "type": "Town",
      "position": { "latitude": 38.9569, "longitude": -8.9874 },
      "services": ["BicycleRepair", "Restaurant", "Groceries", "Pharmacy", "Medical", "Bank", "Train", "Bus"],
      "accommodation": [
        {
          "name": "Hospedaria Maioral",
          "type": "GuestHouse",
          "services": ["Bedlinen", "Towels"],
          "sleeping": ["Single"]
        },
        {
          "name": "Hostel DP",
          "type": "PrivateAlbergue",
          "services": ["WiFi", "Heating", "Kitchen", "Breakfast", "Restaurant", "BicycleStorage", "Bedlinen", "Towels"],
          "sleeping": ["Shared"]
        },
        {
          "name": "Guest House Vilatejo",
          "type": "PrivateAlbergue",
          "services": ["WiFi", "WashingMachine", "Dryer", "BicycleStorage", "Bedlinen", "Towels"],
          "sleeping": ["Shared"]
        },
        {
          "name": "Lezíria Parque Hotel",
          "type": "Hotel",
          "services": ["WiFi", "Heating", "Restaurant", "Accessible", "Bedlinen", "Towels"],
          "sleeping": ["DoubleWC"]
        }
      ]
    },
    {
      "id": "P13",
      "name": "Estación de Carregado",
      "type": "Poi",
      "position": { "latitude": 39.0058, "longitude": -8.9534 },
      "services": ["Restaurant", "Groceries", "Train", "Bus" ],
      "accommodation": [
        {
          "name": "Estação Real",
          "type": "PrivateAlbergue",
          "services": ["Heating", "Bedlinen", "Towels"],
          "sleeping": ["Single"]
        }
      ]
    },
    {
      "id": "P14",
      "name": "Vila Nova de Rainha",
      "type": "Town",
      "position": { "latitude": 39.0363, "longitude": -8.9281 },
      "services": ["Restaurant", "Groceries", "Bank", "Train" ],
      "accommodation": [
      ]
    },
    {
      "id": "P15",
      "name": "Azambuja",
      "type": "Town",
      "position": { "latitude": 39.0695, "longitude": -8.8667 },
      "services": ["BicycleRepair", "Restaurant", "Groceries", "Pharmacy", "Medical", "Bank", "Train", "Bus" ],
      "accommodation": [
        {
          "name": "Azambuja Pilgrims Hostel",
          "type": "MunicipalAlbergue",
          "services": ["Handwash"],
          "sleeping": ["Shared"]
        },
        {
          "name": "Residencial Flôr da Primavera",
          "type": "PrivateAlbergue",
          "services": ["Kitchen", "WiFi", "Bedlinen", "Towels"],
          "sleeping": ["Single", "DoubleWC", "Triple"]
        },
        {
          "name": "Casa da Rainha",
          "type": "PrivateAlbergue",
          "services": ["WiFi", "Bedlinen", "Towels"],
          "sleeping": ["Single", "DoubleWC"]
        }
      ]
    },
    {
      "id": "P16",
      "name": "Reguengo",
      "type": "Village",
      "position": { "latitude": 39.0706, "longitude": -8.7825 },
      "services": ["Restaurant"],
      "accommodation": [
      ]
    },
    {
      "id": "P17",
      "name": "Valada",
      "type": "Village",
      "position": { "latitude": 39.0805, "longitude": -8.7606 },
      "services": [ "Restaurant", "Groceries", "Pharmacy", "Medical", "Bank" ],
      "accommodation": [
        {
          "name": "Dois Caminhos Hostel",
          "type": "PrivateAlbergue",
          "services": [ "WashingMachine",  "Heating", "Kitchen", "Dinner",  "Breakfast", "WiFi", "BicycleStorage",
            "Pets", "Bedlinen", "Towels" ],
          "sleeping": [ "Shared" ]
        },
        {
          "name": "Casal das Areias",
          "type": "GuestHouse",
          "services": [ "WiFi" ],
          "sleeping": [ "Single",  "DoubleWC" ]
        },
        {
          "name": "Vila Río",
          "type": "GuestHouse",
          "services": [ "Heating", "WiFi", "Bedlinen", "Towels", "Pool" ],
          "sleeping": [ "DoubleWC", "Triple" ]
        }
      ]
    },
    {
      "id": "P18",
      "name": "Porto de Muge",
      "type": "Village",
      "position": { "latitude": 39.1074, "longitude": -8.7384 },
      "services": ["Restaurant", "Groceries", "Pharmacy", "Medical", "Bank"],
      "accommodation": [
        {
          "name": "Quinta da Marchanta",
          "type": "GuestHouse",
          "services": ["Breakfast", "WiFi", "BicycleStorage", "Pets", "Bedlinen", "Towels"],
          "sleeping": ["Single", "DoubleWC"]
        }
      ]
    },
    {
      "id": "P19",
      "name": "Omnias",
      "type": "Intersection",
      "position": { "latitude": 39.2182, "longitude": -8.6828 },
      "services": [],
      "accommodation": [
      ]
    },
    {
      "id": "P20",
      "name": "Santarém",
      "type": "City",
      "position": { "latitude": 39.2338, "longitude": -8.6861 },
      "services": ["BicycleRepair", "Restaurant", "Groceries", "Pharmacy", "Medical", "Bank", "Bus" ],
      "accommodation": [
        {
          "name": "Santa Casa da Misericórdia Pilgrims Hostel",
          "type": "MunicipalAlbergue",
          "services": [],
          "sleeping": ["Shared"]
        },
        {
          "name": "Tagus Host",
          "type": "PrivateAlbergue",
          "services": ["Heating", "Kitchen", "WiFi", "Bedlinen", "Towels"],
          "sleeping": ["Double", "Triple"]
        },
        {
          "name": "Vila Graça Hostels and Apartments",
          "type": "PrivateAlbergue",
          "services": ["Heating", "Breakfast", "WiFi", "Bedlinen", "Towels"],
          "sleeping": ["Shared", "DoubleWC"]
        },
        {
          "name": "N1 Hostel Apartments and Suites",
          "type": "PrivateAlbergue",
          "services": ["Heating", "WiFi", "Accessible", "Pets", "BicycleStorage", "Prayer", "Bedlinen", "Towels"],
          "sleeping": ["Shared", "Single", "Double", "DoubleWC", "Quadruple"]
        },
        {
          "name": "Santarém Hotel",
          "type": "Hotel",
          "services": ["Heating", "Breakfast", "WiFi", "Restaurant", "Accessible", "Bedlinen", "Towels", "Pool"],
          "sleeping": ["Single", "DoubleWC"]
        },
        {
          "name": "Hotel Vitória",
          "type": "Hotel",
          "services": ["Heating", "WiFi", "Bedlinen", "Towels"],
          "sleeping": ["Single", "DoubleWC", "Triple"]
        },
        {
          "name": "Hotel Umu",
          "type": "Hotel",
          "services": ["WiFi", "Restaurant", "Bedlinen", "Towels"],
          "sleeping": ["Single", "DoubleWC"]
        }
      ]
    },
    {
      "id": "P21",
      "name": "Ribeira de Santarém",
      "type": "Intersection",
      "position": { "latitude": 39.2377, "longitude": -8.6749 },
      "services": [ "Restaurant", "Groceries", "Train" ],
      "accommodation": [
      ]
    },
    {
      "id": "P22",
      "name": "Vale de Figuiera",
      "type": "Village",
      "position": { "latitude": 39.3079, "longitude": -8.6274 },
      "services": [ "Restaurant", "Groceries", "Pharmacy", "Bank", "Train" ],
      "accommodation": [
        {
          "name": "Casa de Lajanrinas",
          "type": "PrivateAlbergue",
          "services": ["WiFi", "WashingMachine", "Dryer","Lockers", "Pets", "BicycleStorage","Bedlinen", "Towels"],
          "sleeping": ["Shared", "Single", "Double", "DoubleWC"]
        }
      ]
    },
    {
      "id": "P23",
      "name": "Azinhaga",
      "type": "Village",
      "position": { "latitude": 39.3477, "longitude": -8.5293 },
      "services": [ "Restaurant", "Groceries", "Pharmacy", "Medical", "Bank" ],
      "accommodation": [
        {
          "name": "Casa de Azzancha",
          "type": "GuestHouse",
          "services": ["WiFi", "Heating", "Handwash","WashingMachine", "Dryer", "Kitchen", "Breakfast", "Dinner", "Restaurant",
            "Accessible", "BicycleStorage", "Towels"],
          "sleeping": ["Shared", "Single", "DoubleWC", "Triple", "Quadruple"]
        },
        {
          "name": "Casa de Portas",
          "type": "GuestHouse",
          "services": ["WiFi", "Heating", "WashingMachine", "Kitchen", "Breakfast", "Dinner", "Restaurant",
            "Accessible", "BicycleStorage", "Bedlinen", "Towels", "Pool"],
          "sleeping": ["Shared", "Single", "DoubleWC"]
        }
      ]
    },
    {
      "id": "P24",
      "name": "Golegã",
      "type": "Town",
      "position": { "latitude": 39.4065, "longitude": -8.4860 },
      "services": [ "BicycleRepair", "Restaurant", "Groceries", "Pharmacy", "Medical", "Bank" ],
      "accommodation": [
        {
          "name": "Solo Duro Pilgrims Hostel",
          "type": "MunicipalAlbergue",
          "services": ["WiFi", "Heating", "Breakfast", "Dinner", "Pets", "Bedlinen", "Towels"],
          "sleeping": ["Shared", "Single", "DoubleWC"]
        },
        {
          "name": "Quartos do Lagar",
          "type": "PrivateAlbergue",
          "services": ["WiFi", "Bedlinen", "Towels"],
          "sleeping": ["DoubleWC"]
        },
        {
          "name": "Inn Golegã Hostel",
          "type": "PrivateAlbergue",
          "services": ["Heating", "Bedlinen", "Towels"],
          "sleeping": ["Shared", "Single", "DoubleWC"]
        },
        {
          "name": "Hotel Lusitano",
          "type": "Hotel",
          "services": ["Heating", "Breakfast", "Dinner", "Restaurant", "Accessible", "BicycleStorage", "Stables",
            "Bedlinen", "Towels", "Pool"],
          "sleeping": ["DoubleWC"]
        }
      ]
    },
    {
      "id": "P25",
      "name": "São Caetano",
      "type": "Village",
      "position": { "latitude": 39.4401, "longitude": -8.4525 },
      "services": [ ],
      "accommodation": [
        {
          "name": "Casa São Caetano",
          "type": "PrivateAlbergue",
          "services": ["Breakfast"],
          "sleeping": ["Shared"]
        }
      ]
    },
    {
      "id": "P26",
      "name": "Vila Nova da Barquinha",
      "type": "Town",
      "position": { "latitude": 39.4629, "longitude": -8.4425 },
      "services": [ "BicycleRepair", "Restaurant", "Groceries", "Pharmacy", "Medical", "Bank", "Train"  ],
      "accommodation": [
        {
          "name": "Barquinha River House",
          "type": "GuestHouse",
          "services": ["Heating", "WiFi", "Accessible", "BicycleStorage", "Bedlinen", "Towels"],
          "sleeping": ["Single", "DoubleWC"]
        },
        {
          "name": "Barquinha Nature House",
          "type": "GuestHouse",
          "services": ["Heating", "WiFi", "Breakfast", "Bedlinen", "Towels"],
          "sleeping": ["Single", "DoubleWC"]
        },
        {
          "name": "Soltejo Hotel",
          "type": "Hotel",
          "services": ["WiFi", "Restaurant", "BicycleStorage", "Bedlinen", "Towels"],
          "sleeping": ["Single", "DoubleWC"]
        }
      ]
    },
    {
      "id": "P27",
      "name": "Atalaia",
      "type": "Town",
      "position": { "latitude": 39.4808, "longitude": -8.4519 },
      "services": [ "Restaurant", "Groceries", "Pharmacy" ],
      "accommodation": [
        {
          "name": "Casa Conceição",
          "type": "GuestHouse",
          "services": ["Heating", "WiFi", "Kitchen", "BicycleStorage", "Bedlinen", "Towels"],
          "sleeping": ["Quadruple"]
        },
        {
          "name": "Casa do Patriarca",
          "type": "GuestHouse",
          "services": ["Heating", "WiFi", "Bedlinen", "Towels", "Pool"],
          "sleeping": ["DoubleWC"]
        }
      ]
    },
    {
      "id": "P28",
      "name": "Grou",
      "type": "Village",
      "position": { "latitude": 39.5104, "longitude": -8.4057 },
      "services": [ ],
      "accommodation": [
      ]
    },
    {
      "id": "P29",
      "name": "Asseiceira",
      "type": "Town",
      "position": { "latitude": 39.5220, "longitude": -8.4037 },
      "services": [ "BicycleRepair", "Restaurant", "Groceries", "Medical" ],
      "accommodation": [
        {
          "name": "D. Dinis Pilgrims Hostel",
          "type": "MunicipalAlbergue",
          "services": [ ],
          "sleeping": ["Shared"]
        }
      ]
    },
    {
      "id": "P30",
      "name": "Guerrira",
      "type": "Village",
      "position": { "latitude": 39.5428, "longitude": -8.3916 },
      "services": [ "Restaurant" ],
      "accommodation": [
      ]
    },
    {
      "id": "P31",
      "name": "Casal Marmelo",
      "type": "Village",
      "position": { "latitude": 39.5711, "longitude": -8.3939 },
      "services": [  ],
      "accommodation": [
      ]
    },
    {
      "id": "P32",
      "name": "Tomar",
      "type": "City",
      "position": { "latitude": 39.6046, "longitude": -8.4099 },
      "services": [ "BicycleRepair", "Restaurant", "Groceries", "Pharmacy", "Medical", "Bank", "Train", "Bus" ],
      "accommodation": [
        {
          "name": "Hostel 2300 Tomar",
          "type": "PrivateAlbergue",
          "services": [ "WashingMachine", "Dryer", "Kitchen", "Breakfast", "WiFi", "BicycleStorage", "Bedlinen" ],
          "sleeping": ["Shared", "Single", "Double", "DoubleWC", "Triple", "Quadruple" ]
        },
        {
          "name": "Residencial União",
          "type": "PrivateAlbergue",
          "services": [ "Heating", "WiFi", "Restaurant", "Bedlinen", "Towels" ],
          "sleeping": ["Single", "DoubleWC", "Triple" ]
        },
        {
          "name": "Residencial-Hostel Avenida",
          "type": "PrivateAlbergue",
          "services": [ "Heating", "Kitchen", "Breakfast", "WiFi", "Lockers", "Bedlinen", "Towels" ],
          "sleeping": [ "DoubleWC", "Quadruple" ]
        },
        {
          "name": "Pensão Residencial Luanda",
          "type": "PrivateAlbergue",
          "services": [ "WashingMachine", "Dryer", "Heating", "WiFi", "BicycleStorage", "Bedlinen", "Towels" ],
          "sleeping": ["Single", "DoubleWC", "Triple" ]
        },
        {
          "name": "Hotel dos Templarios",
          "type": "Hotel",
          "services": [ "WashingMachine", "Dryer", "Heating", "Dinner", "Breakfast", "WiFi", "Restaurant",
            "BicycleStorage", "Accessible", "Bedlinen", "Towels", "Pool"],
          "sleeping": ["Shared", "DoubleWC" ]
        },
        {
          "name": "Hotel Tomar Story Guesthouse",
          "type": "Hotel",
          "services": [ "Heating", "Breakfast", "WiFi", "BicycleStorage", "Bedlinen", "Towels"],
          "sleeping": ["Shared", "DoubleWC", "Triple" ]
        }
      ]
    },
    {
      "id": "P33",
      "name": "Ponte de Peniche",
      "type": "Bridge",
      "position": { "latitude": 39.6204, "longitude": -8.4000 },
      "services": [ "Restaurant" ],
      "accommodation": [ ]
    },
    {
      "id": "P34",
      "name": "Casais",
      "type": "Village",
      "position": { "latitude": 39.6523, "longitude": -8.3844 },
      "services": [ "Restaurant", "Pharmacy", "Medical" ],
      "accommodation": [ "GuestHouse" ]
    },
    {
      "id": "P35",
      "name": "Soianda",
      "type": "Village",
      "position": { "latitude": 39.6605, "longitude": -8.3829 },
      "services": [ "Restaurant" ],
      "accommodation": [  ]
    },
    {
      "id": "P36",
      "name": "Calvinos",
      "type": "Village",
      "position": { "latitude": 39.6744, "longitude": -8.3764 },
      "services": [ "Restaurant", "Groceries" ],
      "accommodation": [ "MunicipalAlbergue"  ]
    },
    {
      "id": "P37",
      "name": "Chão das Eiras",
      "type": "Village",
      "position": { "latitude": 39.6868, "longitude": -8.3729 },
      "services": [  ],
      "accommodation": [   ]
    },
    {
      "id": "P38",
      "name": "Pte. de Ceras",
      "type": "Village",
      "position": { "latitude": 39.6972, "longitude": -8.3592 },
      "services": [ ],
      "accommodation": [  ]
    },
    {
      "id": "P39",
      "name": "Escoural",
      "type": "Village",
      "position": { "latitude": 39.6998, "longitude": -8.3559 },
      "services": [ ],
      "accommodation": [  ]
    },
    {
      "id": "P40",
      "name": "Rua de Espanha",
      "type": "Village",
      "position": { "latitude": 39.7052, "longitude": -8.3554 },
      "services": [ ],
      "accommodation": [  ]
    },
    {
      "id": "P41",
      "name": "Portela de Vila Verde",
      "type": "Village",
      "position": { "latitude": 39.7103, "longitude": -8.3570 },
      "services": [ "Restaurant" ],
      "accommodation": [  ]
    },
    {
      "id": "P42",
      "name": "Vila Verde (Areias)",
      "type": "Village",
      "position": { "latitude": 39.7339, "longitude": -8.3450 },
      "services": [ ],
      "accommodation": [  ]
    },
    {
      "id": "P43",
      "name": "Tojal",
      "type": "Village",
      "position": { "latitude": 39.7520, "longitude": -8.3625 },
      "services": [ "Groceries" ],
      "accommodation": [ "Hotel" ]
    },
    {
      "id": "P44",
      "name": "Cortiça",
      "type": "Village",
      "position": { "latitude": 39.7809, "longitude": -8.3822 },
      "services": [ "Groceries" ],
      "accommodation": [ "PrivateAlbergue" ]
    },
    {
      "id": "P45",
      "name": "Outeiro da Cotovia",
      "type": "Village",
      "position": { "latitude": 39.7828, "longitude": -8.3781 },
      "services": [  ],
      "accommodation": [  ]
    },
    {
      "id": "P46",
      "name": "Outerinho",
      "type": "Village",
      "position": { "latitude": 39.7882, "longitude": -8.3745 },
      "services": [  ],
      "accommodation": [  ]
    },
    {
      "id": "P47",
      "name": "Feteiras",
      "type": "Village",
      "position": { "latitude": 39.8010, "longitude": -8.3727 },
      "services": [  ],
      "accommodation": [  ]
    },
    {
      "id": "P48",
      "name": "Farroeira",
      "type": "Village",
      "position": { "latitude": 39.8109, "longitude": -8.3737 },
      "services": [  ],
      "accommodation": [  ]
    },
    {
      "id": "P49",
      "name": "Alvaiázere",
      "type": "Town",
      "position": { "latitude": 39.8255, "longitude": -8.3814 },
      "services": [ "BicycleRepair", "Restaurant", "Groceries", "Pharmacy", "Medical", "Bank" ],
      "accommodation": [ "MunicipalAlbergue", "PrivateAlbergue" ]
    },
    {
      "id": "P50",
      "name": "Laranjeiras",
      "type": "Village",
      "position": { "latitude": 39.8431, "longitude": -8.3941 },
      "services": [ ],
      "accommodation": [ ]
    },
    {
      "id": "P51",
      "name": "Vendas",
      "type": "Village",
      "position": { "latitude": 39.8499, "longitude": -8.4018 },
      "services": [ ],
      "accommodation": [ ]
    },
    {
      "id": "P52",
      "name": "Venda do Negro",
      "type": "Village",
      "position": { "latitude": 39.8688, "longitude": -8.4203 },
      "services": [ ],
      "accommodation": [ ]
    },
    {
      "id": "P53",
      "name": "Casal Soeiro",
      "type": "Village",
      "position": { "latitude": 39.8898, "longitude": -8.4189 },
      "services": [ ],
      "accommodation": [ ]
    },
    {
      "id": "P54",
      "name": "Empeados",
      "type": "Village",
      "position": { "latitude": 39.8993, "longitude": -8.4261 },
      "services": [ ],
      "accommodation": [ ]
    },
    {
      "id": "P55",
      "name": "Ansião",
      "type": "Town",
      "position": { "latitude": 39.9108, "longitude": -8.4383 },
      "services": [ "BicycleRepair", "Restaurant", "Groceries", "Pharmacy", "Medical", "Bank" ],
      "accommodation": [ "PrivateAlbergue", "Hotel" ]
    },
    {
      "id": "P56",
      "name": "Netos",
      "type": "Village",
      "position": { "latitude": 39.93964,  "longitude": -8.43689 },
      "services": [ ],
      "accommodation": [ ]
    },
    {
      "id": "P57",
      "name": "Venda do Brasil",
      "type": "Village",
      "position": { "latitude": 39.95291, "longitude": -8.45365 },
      "services": [ "Restaurant" ],
      "accommodation": [ ]
    },
    {
      "id": "P58",
      "name": "Casais da Granja",
      "type": "Village",
      "position": { "latitude": 39.95409,  "longitude": -8.45848 },
      "services": [ ],
      "accommodation": [ "GuestHouse", "House" ]
    },
    {
      "id": "P59",
      "name": "Junqueira",
      "type": "Village",
      "position": { "latitude": 39.96713, "longitude": -8.45559 },
      "services": [ "Pharmacy" ],
      "accommodation": [ ]
    },
    {
      "id": "P60",
      "name": "Alvorge",
      "type": "Town",
      "position": { "latitude": 39.97881, "longitude": -8.45580 },
      "services": [ "Restaurant", "Groceries", "Bank" ],
      "accommodation": [ "MunicipalAlbergue", "GuestHouse" ]
    },
    {
      "id": "P61",
      "name": "Ribeira de Alcalamouque",
      "type": "Village",
      "position": { "latitude": 40.01172, "longitude": -8.45301 },
      "services": [  ],
      "accommodation": [ "GuestHouse" ]
    },
    {
      "id": "P62",
      "name": "Rabaçal",
      "type": "Town",
      "position": { "latitude": 40.02915, "longitude": -8.45484 },
      "services": [ "Restaurant", "Groceries", "BicycleRepair", "Bank" ],
      "accommodation": [ "PrivateAlbergue" ]
    },
     {
      "id": "P63",
      "name": "Zambujal",
      "type": "Village",
      "position": { "latitude": 40.05548, "longitude": -8.44599 },
      "services": [ ],
      "accommodation": [ "GuestHouse" ]
    },
    {
      "id": "P64",
      "name": "Fonte Coberta",
      "type": "Village",
      "position": { "latitude": 40.06932, "longitude": -8.46211 },
      "services": [ ],
      "accommodation": [  ]
    },
    {
      "id": "P65",
      "name": "Poço",
      "type": "Village",
      "position": { "latitude": 40.07838, "longitude": -8.47808 },
      "services": [ ],
      "accommodation": [  ]
    },
    {
      "id": "P66",
      "name": "Conimbriga",
      "type": "Poi",
      "position": { "latitude": 40.09850, "longitude": -8.49157 },
      "services": [ "Restaurant" ],
      "accommodation": [  ]
    },
    {
      "id": "P67",
      "name": "Valada (Condeixa-a-Nova)",
      "type": "Village",
      "position": { "latitude": 40.10541, "longitude": -8.48771 },
      "services": [ "Restaurant", "Groceries" ],
      "accommodation": [
        {
          "name": "Albergue de Conimbriga",
          "type": "MunicipalAlbergue",
          "services": ["Handwash", "WiFi", "Dinner", "BicycleStorage", "Towels", "Pool" ],
          "sleeping": ["Shared"]
        }
      ]
    },
    {
      "id": "P68",
      "name": "Atadoa",
      "type": "Village",
      "position": { "latitude": 40.10828, "longitude": -8.47870 },
      "services": [ ],
      "accommodation": [  ]
    },
    {
      "id": "P69",
      "name": "Avessada",
      "type": "Village",
      "position": { "latitude": 40.11301, "longitude": -8.47686 },
      "services": [ ],
      "accommodation": [  ]
    },
    {
      "id": "P70",
      "name": "Orelhudo",
      "type": "Village",
      "position": { "latitude": 40.12555, "longitude": -8.47777 },
      "services": [ "Groceries" ],
      "accommodation": [  ]
    },
    {
      "id": "P71",
      "name": "Ribeira de Casconha",
      "type": "Village",
      "position": { "latitude": 40.130942, "longitude": -8.47169 },
      "services": [ "Bus" ],
      "accommodation": [  ]
    },
    {
      "id": "P72",
      "name": "Cernache",
      "type": "Town",
      "position": { "latitude": 40.13786, "longitude": -8.46969 },
      "services": [ "Restaurant", "Groceries", "Pharmacy", "Medical", "Bank", "Bus" ],
      "accommodation": [ "MunicipalAlbergue" ]
    },
    {
      "id": "P73",
      "name": "Pousada",
      "type": "Village",
      "position": { "latitude": 40.14083, "longitude": -8.45492 },
      "services": [ "Bus" ],
      "accommodation": [ ]
    },
    {
      "id": "P74",
      "name": "Palheira",
      "type": "Village",
      "position": { "latitude": 40.16453, "longitude": -8.45126 },
      "services": [ "Bus" ],
      "accommodation": [ "PrivateAlbergue" ]
    },
    {
      "id": "P75",
      "name": "Qunita do Limoneiro",
      "type": "Village",
      "position": { "latitude": 40.17535, "longitude": -8.45123 },
      "services": [ "Bus" ],
      "accommodation": [ ]
    },
    {
      "id": "P76",
      "name": "Cruz dos Morouços",
      "type": "Village",
      "position": { "latitude": 40.18148, "longitude": -8.45167 },
      "services": [ "Restaurant", "Bus" ],
      "accommodation": [
        {
          "name": "Casa da Tia Lena",
          "type": "GuestHouse",
          "services": [ "WiFi", "Kitchen", "Breakfast", "Bedlinen", "Towels", "Pets" ],
          "sleeping": ["Double"]
        }
      ]
    },
    {
      "id": "P77",
      "name": "Bordalo",
      "type": "Village",
      "position": { "latitude": 40.19297, "longitude": -8.44637 },
      "services": [ "Bus" ],
      "accommodation": [ ]
    },
    {
      "id": "P78",
      "name": "Coímbra",
      "type": "City",
      "position": { "latitude": 40.20705, "longitude": -8.42957 },
      "services": [ "Restaurant", "Groceries", "Pharmacy", "Medical", "Bank", "BicycleRepair", "Train", "Bus" ],
      "accommodation": [ "MunicipalAlbergue", "PrivateAlbergue", "GuestHouse", "Hotel" ]
    },
    {
      "id": "P79",
      "name": "Adémia de Baxio",
      "type": "Village",
      "position": { "latitude": 40.25047, "longitude": -8.45062 },
      "services": [ "Restaurant", "Train", "Bus" ],
      "accommodation": [ ]
    },
    {
      "id": "P80",
      "name": "Fornos",
      "type": "Village",
      "position": { "latitude": 40.26610, "longitude": -8.44452 },
      "services": [ "Restaurant", "Bus" ],
      "accommodation": [
        {
          "name": "Casa Morais Turismo Rural",
          "type": "GuestHouse",
          "services": [ "WiFi", "Bedlinen", "Towels" ],
          "sleeping": ["DoubleWC"]
        }
      ]
    },
    {
      "id": "P81",
      "name": "Trouxemil",
      "type": "Village",
      "position": { "latitude": 40.27533, "longitude": -8.45419 },
      "services": [ "Restaurant", "Groceries", "Bus" ],
      "accommodation": [ ]
    },
    {
      "id": "P82",
      "name": "Adões",
      "type": "Village",
      "position": { "latitude": 40.28156, "longitude": -8.45361 },
      "services": [ "Restaurant", "Bus" ],
      "accommodation": [ ]
    },
    {
      "id": "P83",
      "name": "Sargento Mõr",
      "type": "Village",
      "position": { "latitude": 40.28961, "longitude": -8.44734 },
      "services": [ "Restaurant", "Groceries", "Bus" ],
      "accommodation": [ ]
    },
    {
      "id": "P84",
      "name": "Santa Luzia",
      "type": "Village",
      "position": { "latitude": 40.30531, "longitude": -8.44864 },
      "services": [ "Restaurant", "Groceries" ],
      "accommodation": [ ]
    },
    {
      "id": "P85",
      "name": "Mala",
      "type": "Village",
      "position": { "latitude": 40.33570, "longitude": -8.46423 },
      "services": [ "Restaurant", "Groceries" ],
      "accommodation": [ ]
    },
    {
      "id": "P86",
      "name": "Lendiosa",
      "type": "Village",
      "position": { "latitude": 40.34608, "longitude": -8.46320 },
      "services": [ "Restaurant" ],
      "accommodation": [ ]
    },
    {
      "id": "P87",
      "name": "Vimieira",
      "type": "Village",
      "position": { "latitude": 40.35749, "longitude": -8.46366 },
      "services": [ "Groceries" ],
      "accommodation": [ "GuestHouse" ]
    },
    {
      "id": "P88",
      "name": "Mealhanda",
      "type": "Town",
      "position": { "latitude": 40.38071, "longitude": -8.44947 },
      "services": [ "Restaurant", "Groceries", "Pharmacy", "Medical", "Bank", "Train" ],
      "accommodation": [
        {
          "name": "Hotel Oásis",
          "type": "Hotel",
          "services": [ "WiFi", "Heating", "Restaurant", "Breakfast", "Dinner", "Bedlinen", "Towels" ],
          "sleeping": [ "Single", "DoubleWC" ]
        }

      ]
    },
    {
      "id": "P89",
      "name": "Sernadelo",
      "type": "Village",
      "position": { "latitude": 40.39079, "longitude": -8.44932 },
      "services": [ "Restaurant", "Groceries" ],
      "accommodation": [
        {
          "name": "Albegue - Residential Hilário",
          "type": "MunicipalAlbergue",
          "services": [ "WiFi", "Handwash", "Heating", "Breakfast", "Bedlinen", "Towels", "Pool" ],
          "sleeping": [ "Shared" ,"Single", "DoubleWC" ]
        },
        {
          "name": "Quinta dos Três Pinheiros",
          "type": "Hotel",
          "services": [ "WiFi", "WashingMachine", "Heating", "Restaurant", "Breakfast", "Bedlinen", "Towels", "Pool" ],
          "sleeping": [ "Shared" ,"Single", "DoubleWC" ]
        }
      ]
    },
    {
      "id": "P90",
      "name": "Alpalhão",
      "type": "Village",
      "position": { "latitude": 40.40251, "longitude": -8.44803 },
      "services": [ ],
      "accommodation": [ ]
    },
     {
      "id": "P91",
      "name": "Aguim",
      "type": "Village",
      "position": { "latitude": 40.41415, "longitude": -8.44549 },
      "services": [  ],
      "accommodation": [ ]
    },
    {
      "id": "P92",
      "name": "Anadia",
      "type": "Town",
      "position": { "latitude": 40.44406, "longitude": -8.45208 },
      "services": [ "Restaurant", "Groceries", "Pharmacy", "Medical", "Bank" ],
      "accommodation": [
        {
          "name": "Hotel Cabecinho",
          "type": "Hotel",
          "services": [ "WiFi", "WashingMachine", "Heating", "Restaurant", "Breakfast", "Accessible", "Bedlinen", "BicycleStorage", "Towels", "Pool" ],
          "sleeping": [ "DoubleWC" ]
        },
        {
          "name": "Curia Palace",
          "type": "Hotel",
          "services": [ "WiFi", "Heating", "Restaurant", "Breakfast", "Dinner", "Accessible", "Bedlinen", "BicycleStorage", "Towels", "Pool" ],
          "sleeping": [ "Single", "DoubleWC" ]
        }
      ]
    },
    {
      "id": "P93",
      "name": "Arcos",
      "type": "Village",
      "position": { "latitude": 40.44794, "longitude": -8.44157 },
      "services": [ "Restaurant" ],
      "accommodation": [
        {
          "name": "Casa de Arcos",
          "type": "GuestHouse",
          "services": [ "WiFi", "WashingMachine", "Dryer", "Heating", "Breakfast", "Dinner", "Lockers", "Bedlinen", "BicycleStorage", "Towels", "Pool" ],
          "sleeping": [ "DoubleWC" ]
        }
      ]
    },
    {
      "id": "P94",
      "name": "Alféloas",
      "type": "Village",
      "position": { "latitude": 40.45216, "longitude": -8.438490 },
      "services": [ ],
      "accommodation": [ ]
    },
    {
      "id": "P95",
      "name": "Avelãs de Caminho",
      "type": "Town",
      "position": { "latitude": 40.47925, "longitude": -8.45289 },
      "services": [ "Restaurant", "Groceries", "Pharmacy", "Bank" ],
      "accommodation": [ ]
    },
    {
      "id": "P96",
      "name": "São Jão de Azenha",
      "type": "Village",
      "position": { "latitude": 40.49522, "longitude": -8.45379 },
      "services": [ ],
      "accommodation": [ ]
    },
    {
      "id": "P97",
      "name": "Aguada de Baixo",
      "type": "Village",
      "position": { "latitude": 40.51320, "longitude": -8.45376 },
      "services": [ "Restaurant", "Groceries", "Pharmacy" ],
      "accommodation": [ ]
    },
    {
      "id": "P98",
      "name": "Landosia",
      "type": "Village",
      "position": { "latitude": 40.51771, "longitude": -8.45552 },
      "services": [ "Restaurant" ],
      "accommodation": [ ]
    },
    {
      "id": "P99",
      "name": "Brejo",
      "type": "Village",
      "position": { "latitude": 40.55106, "longitude": -8.45117 },
      "services": [ ],
      "accommodation": [ ]
    },
    {
      "id": "P100",
      "name": "Sardão",
      "type": "Village",
      "position": { "latitude": 40.56416, "longitude": -8.44603 },
      "services": [ ],
      "accommodation": [ ]
    },
    {
      "id": "P101",
      "name": "Águeda",
      "type": "Town",
      "position": { "latitude": 40.57197, "longitude": -8.44785 },
      "services": [ "BicycleRepair", "Restaurant", "Groceries", "Pharmacy", "Medical", "Bank", "Train" ],
      "accommodation": [
        {
          "name": "Santo António Pilgims Hostel",
          "type": "MunicipalAlbergue",
          "services": [ "WiFi", "WashingMachine", "Dryer", "Kitchen", "Breakfast", "Bedlinen", "BicycleStorage", "Towels" ],
          "sleeping": [ "Shared", "Single", "DoubleWC" ]
        },
        {
          "name": "Alojamento XPT",
          "type": "PrivateAlbergue",
          "services": [ "WiFi", "Heating", "Breakfast", "BicycleStorage", "Towels" ],
          "sleeping": [ "Single", "DoubleWC", "Triple", "Quadruple" ]
        },
        {
          "name": "Águeda Hostel and Friends",
          "type": "PrivateAlbergue",
          "services": [ "WiFi", "Heating", "Breakfast", "Accessible", "Bedlinen", "Towels" ],
          "sleeping": [ "Shared", "DoubleWC" ]
        },
        {
          "name": "Residencial Celeste",
          "type": "PrivateAlbergue",
          "services": [ "WiFi", "Heating", "Kitchen", "Bedlinen", "Towels" ],
          "sleeping": [ "Single", "DoubleWC" ]
        },
        {
          "name": "Hotel Conde de Águeda",
          "type": "Hotel",
          "services": [ "WiFi", "Heating", "Restaurant", "Breakfast", "Accessible", "BicycleStorage", "Bedlinen", "Towels" ],
          "sleeping": [ "Shared", "DoubleWC" ]
        }
      ]
    },
    {
      "id": "P102",
      "name": "Paredes",
      "type": "Village",
      "position": { "latitude": 40.57712, "longitude": -8.45287 },
      "services": [ ],
      "accommodation": [ ]
    },
    {
      "id": "P103",
      "name": "Vale da Erva",
      "type": "Intersection",
      "position": { "latitude": 40.57985, "longitude": -8.45573 },
      "services": [ ],
      "accommodation": [ ]
    },
    {
      "id": "P104",
      "name": "Mourisca do Vouga",
      "type": "Town",
      "position": { "latitude": 40.60593, "longitude": -8.46196 },
      "services": [ "Restaurant", "Groceries", "Pharmacy", "Medical", "Bank" ,"Train" ],
      "accommodation": [
        {
          "name": "Residencial O Trindade",
          "type": "PrivateAlbergue",
          "services": [ "WiFi", "Heating", "Restaurant", "Breakfast", "Bedlinen", "Towels" ],
          "sleeping": [ "Single", "DoubleWC", "Triple" ]
        }
      ]
    },
    {
      "id": "P105",
      "name": "Pedaçães",
      "type": "Village",
      "position": { "latitude": 40.62791, "longitude": -8.47019 },
      "services": [ "Restaurant" ],
      "accommodation": [ ]
    },
    {
      "id": "P106",
      "name": "Lamas do Vouga",
      "type": "Bridge",
      "position": { "latitude": 40.64074, "longitude": -8.46590 },
      "services": [ "Restaurant" ],
      "accommodation": [
        {
          "name": "Quinta da Mesa",
          "type": "House",
          "services": [ "WiFi", "WashingMachine", "Heating", "Kitchen", "Breakfast", "Bedlinen", "Towels", "Pool" ],
          "sleeping": [ "Double" ]
        }
      ]
    },
    {
      "id": "P107",
      "name": "Lameiro",
      "type": "Village",
      "position": { "latitude": 40.64641, "longitude": -8.46581 },
      "services": [ ],
      "accommodation": [ ]
    },
    {
      "id": "P108",
      "name": "Serém de Cima",
      "type": "Village",
      "position": { "latitude": 40.65458, "longitude": -8.47017 },
      "services": [ "Restaurant", "Groceries" ],
      "accommodation": [ ]
    },
    {
      "id": "P109",
      "name": "Albergaria-a-Velha",
      "type": "Town",
      "position": { "latitude": 40.68885, "longitude": -8.48188 },
      "services": [ "Restaurant", "Groceries", "Pharmacy", "Medical", "Bank", "BicycleRepair", "Train", "Bus" ],
      "accommodation": [
        {
          "name": "Rainha D. Teresa Pilgrims Hostel",
          "type": "MunicipalAlbergue",
          "services": [ "WiFi", "Handwash", "Heating", "Kitchen", "Accessible", "Stables", "BicycleStorage" ],
          "sleeping": [ "Shared" ]
        },
        {
          "name": "Estalagem dos Padres",
          "type": "PrivateAlbergue",
          "services": [ "WiFi", "Heating", "Kitchen", "Bedlinen", "Towels" ],
          "sleeping": [ "Shared", "DoubleWC" ]
        },
        {
          "name": "Estúdio Albergaria",
          "type": "House",
          "services": [ "WiFi", "Heating", "BicycleStorage", "Bedlinen", "Towels" ],
          "sleeping": [ "DoubleWC" ]
        },
        {
          "name": "Ribeirotel",
          "type": "Hotel",
          "services": [ "WiFi", "Heating", "Accessible", "Bedlinen", "Towels" ],
          "sleeping": [ "DoubleWC" ]
        },
        {
          "name": "Hotel Alameda",
          "type": "Hotel",
          "services": [ "WiFi", "Heating", "Bedlinen", "Towels" ],
          "sleeping": [ "Single", "DoubleWC" ]
        }
      ]
    },

    {
      "id": "F1",
      "name": "Azóia de Baixo",
      "type": "Village",
      "position": { "latitude": 39.29792, "longitude": -8.70602 },
      "services": [ "Restaurant" ],
      "accommodation": [
        {
          "name": "Albergue de Azóia de Baixo",
          "type": "MunicipalAlbergue",
          "services": ["WiFi", "Breakfast"],
          "sleeping": ["Shared"]
        }
      ]
    },
    {
      "id": "F2",
      "name": "Santos",
      "type": "Village",
      "position": { "latitude": 39.37447, "longitude": -8.71393 },
      "services": ["Restaurant"],
      "accommodation": [
      ]
    },
    {
      "id": "F3",
      "name": "Arneiro das Milhaiças",
      "type": "Village",
      "position": { "latitude": 39.39985, "longitude": -8.70393 },
      "services": ["Restaurant"],
      "accommodation": [
        {
          "name": "Casa \"O Primo Bazílio\"",
          "type": "GuestHouse",
          "services": ["Pool"],
          "sleeping": ["DoubleWC"]
        },
        {
          "name": "Casa do Adro",
          "type": "PrivateAlbergue",
          "services": ["Handwash", "Kitchen"],
          "sleeping": ["Shared"]
        }
      ]
    },
    {
      "id": "F4",
      "name": "Amiais de Baixo",
      "type": "Town",
      "position": { "latitude": 39.44404, "longitude": -8.72269 },
      "services": ["Restaurant", "Groceries", "Pharmacy"],
      "accommodation": [
        {
          "name": "Hotel Amiribatejo",
          "type": "Hotel",
          "services": ["WiFi", "Breakfast", "Bedlinen", "Towels"],
          "sleeping": ["DoubleWC"]
        },
        {
          "name": "A Casa da Avó Cuca",
          "type": "GuestHouse",
          "services": [],
          "sleeping": ["DoubleWC"]
        }
      ]
    },
    {
      "id": "F5",
      "name": "Monsanto",
      "type": "Town",
      "position": { "latitude": 39.462107, "longitude": -8.71166 },
      "services": ["Restaurant", "Groceries"],
      "accommodation": [
        {
          "name": "Albergue Monsanto",
          "type": "MunicipalAlbergue",
          "services": ["Handwash", "Kitchen"],
          "sleeping": ["Shared"]
        }
      ]
    },
    {
      "id": "F6",
      "name": "Covão do Feto",
      "type": "Village",
      "position": { "latitude": 39.49428, "longitude": -8.69350 },
      "services": ["Restaurant"],
      "accommodation": [
        {
          "name": "Casa do Cabechinho",
          "type": "House",
          "services": ["Kitchen", "WiFi"],
          "sleeping": ["Single", "Double"]
        }
      ]
    },
    {
      "id": "F7",
      "name": "Minde",
      "type": "Town",
      "position": { "latitude": 39.51473, "longitude": -8.68721 },
      "services": ["Restaurant", "Groceries", "Pharmacy", "Medical", "Bank", "Train" ],
      "accommodation": [
        {
          "name": "Casal Dos 5",
          "type": "Hotel",
          "services": ["WiFi", "Breakfast", "Pool", "WashingMachine", "Dryer", "Bedlinen", "Towels"],
          "sleeping": ["DoubleWC"]
        },
        {
          "name": "Wooden House",
          "type": "House",
          "services": ["WiFi", "Kitchen", "Breakfast", "WashingMachine", "Bedlinen", "Towels"],
          "sleeping": ["Single", "Double"]
        }
      ]
    },
    {
      "id": "F8",
      "name": "Covão do Coelho",
      "type": "Village",
      "position": { "latitude": 39.53119, "longitude": -8.67287 },
      "services": ["Restaurant"],
      "accommodation": [
      ]
    },
    {
      "id": "F9",
      "name": "Moita do Martinho",
      "type": "Village",
      "position": { "latitude": 39.61865, "longitude": -8.70121 },
      "services": ["Restaurant"],
      "accommodation": [
        {
          "name": "Mocho Guesthouse",
          "type": "GuestHouse",
          "services": ["WiFi", "Kitchen", "Breakfast", "WashingMachine", "Bedlinen", "Towels"],
          "sleeping": ["DoubleWC", "QuadrupleWC"]
        }
      ]
    },
    {
      "id": "F10",
      "name": "Fátima",
      "type": "City",
      "services": ["Restaurant", "Groceries", "Pharmacy", "Medical", "Bank", "Bus"],
      "position": { "latitude": 39.63124, "longitude": -8.67214},
      "accommodation": [
        {
          "name": "Fatima Albergue",
          "type": "MunicipalAlbergue",
          "services": ["WiFi", "Kitchen", "Handwash"],
          "sleeping": ["Shared"]
        },
        {
          "name": "Crown of Fatima",
          "type": "Hotel",
          "services": ["WiFi", "Restaurant", "Bedlinen", "Towels"],
          "sleeping": ["Single", "DoubleWC"]
        }
      ]
    },
    {
      "id": "F11",
      "name": "Alveijar",
      "type": "Village",
      "position": { "latitude": 39.61784, "longitude": -8.6163 },
      "services": ["Restaurant"],
      "accommodation": [
      ]
    },
    {
      "id": "F12",
      "name": "Outeiro das Matas",
      "type": "Village",
      "position": { "latitude": 39.60709, "longitude": -8.58512 },
      "services": ["Restaurant"],
      "accommodation": [
      ]
    },
    {
      "id": "F13",
      "name": "Lagoa do Furadouro",
      "type": "Village",
      "position": { "latitude": 39.62178, "longitude": -8.55266 },
      "services": ["Restaurant"],
      "accommodation": [
      ]
    },
    {
      "id": "F14",
      "name": "Fungalvaz",
      "type": "Village",
      "position": { "latitude": 39.61162, "longitude": -8.49922 },
      "services": ["Restaurant", "Train"],
      "accommodation": [
        {
          "name": "The Space",
          "type": "GuestHouse",
          "services": ["WiFi", "Bedlinen", "Towels"],
          "sleeping": ["Double"]
        },
        {
          "name": "Tomar B&B Casa das flores",
          "type": "GuestHouse",
          "services": ["WiFi", "Bedlinen", "Towels"],
          "sleeping": ["Double"]
        }
      ]
    },
    {
      "id": "F15",
      "name": "Brasões",
      "type": "Village",
      "position": { "latitude": 39.61361, "longitude": -8.45163 },
      "services": ["Restaurant"],
      "accommodation": [
        {
          "name": "Casa Portu-Breizh",
          "type": "House",
          "services": ["WiFi", "Kitchen", "Bedlinen", "Towels", "Pool"],
          "sleeping": ["Double"]
        }
      ]
    },
    {
      "id": "F16",
      "name": "Murtal",
      "type": "Village",
      "position": { "latitude": 39.6474, "longitude": -8.6379 },
      "services": [ "Restaurant" ],
      "accommodation": [ ]
    },

    {
      "id": "F17",
      "name": "N113 Crossing",
      "type": "Intersection",
      "position": { "latitude": 39.6598, "longitude": -8.6252 },
      "services": [ "Bus" ],
      "accommodation": [ ]
    },
    {
      "id": "F18",
      "name": "Rua da Cartaxa",
      "type": "Village",
      "position": { "latitude": 39.6610, "longitude": -8.6111 },
      "services": [ ],
      "accommodation": [ ]
    },
    {
      "id": "F19",
      "name": "Jorja",
      "type": "Village",
      "position": { "latitude": 39.6680, "longitude": -8.6025 },
      "services": [ "Restaurant" ],
      "accommodation": [ ]
    },
    {
      "id": "F20",
      "name": "Pinheiro",
      "type": "Village",
      "position": { "latitude": 39.6788, "longitude": -8.5964 },
      "services": [ "Restaurant" ],
      "accommodation": [ ]
    },
    {
      "id": "F21",
      "name": "Casal do Castanheiro",
      "type": "Village",
      "position": { "latitude": 39.6790, "longitude": -8.5789 },
      "services": [ ],
      "accommodation": [ ]
    },
    {
      "id": "F22",
      "name": "Casal dos Crespos",
      "type": "Village",
      "position": { "latitude": 39.6909, "longitude": -8.5630 },
      "services": [ ],
      "accommodation": [ ]
    },
    {
      "id": "F23",
      "name": "Conceicão",
      "type": "Village",
      "position": { "latitude": 39.7006, "longitude": -8.56289 },
      "services": [ "Restaurant" ],
      "accommodation": [ ]
    },
    {
      "id": "F24",
      "name": "Rua Ribeira do Castelo",
      "type": "Village",
      "position": { "latitude": 39.7118, "longitude": -8.5521 },
      "services": [ ],
      "accommodation": [ ]
    },
    {
      "id": "F25",
      "name": "Caxarias",
      "type": "Town",
      "position": { "latitude": 39.7149, "longitude": -8.5440 },
      "services": [ "Restaurant", "Bank", "Groceries", "Bank", "Train", "Bus" ],
      "accommodation": [ ]
    },
    {
      "id": "F26",
      "name": "Rio de Couros",
      "type": "Village",
      "position": { "latitude": 39.7267, "longitude": -8.4988 },
      "services": [ "Restaurant", "Pharmacy", "Bank" ],
      "accommodation": [ "House" ]
    },
    {
      "id": "F27",
      "name": "Carvalhal do Meio",
      "type": "Village",
      "position": { "latitude": 39.7364, "longitude": -8.5251 },
      "services": [ ],
      "accommodation": [ ]
    },
    {
      "id": "F28",
      "name": "Casal do Ribeiro",
      "type": "Village",
      "position": { "latitude": 39.7481, "longitude": -8.5170 },
      "services": [ "Restaurant" ],
      "accommodation": [ ]
    },
    {
      "id": "F29",
      "name": "Cacinheira",
      "type": "Village",
      "position": { "latitude": 39.7557, "longitude": -8.5131 },
      "services": [ ],
      "accommodation": [ ]
    },
    {
      "id": "F30",
      "name": "Farrio",
      "type": "Village",
      "position": { "latitude": 39.7809, "longitude": -8.5051 },
      "services": [ "Groceries" ],
      "accommodation": [ "PrivateAlbergue" ]
    },
    {
      "id": "F31",
      "name": "Cumeada",
      "type": "Village",
      "position": { "latitude": 39.7990, "longitude": -8.4927 },
      "services": [ "Restaurant" ],
      "accommodation": [ ]
    },
    {
      "id": "F32",
      "name": "Ponte Nova",
      "type": "Village",
      "position": { "latitude": 39.8238, "longitude": -8.4707 },
      "services": [ "Restaurant", "Groceries" ],
      "accommodation": [ ]
    },
    {
      "id": "F33",
      "name": "Almoster",
      "type": "Village",
      "position": { "latitude": 39.8473, "longitude": -8.4456 },
      "services": [ "Groceries" ],
      "accommodation": [ ]
    },

    {
      "id": "F35",
      "name": "Vale da Perra",
      "type": "Village",
      "position": { "latitude": 39.62645, "longitude": -8.62048 },
      "services": [  ],
      "accommodation": [ "GuestHouse" ]
    },
    {
      "id": "F36",
      "name": "Atougia",
      "type": "Village",
      "position": { "latitude": 39.64427, "longitude": -8.61039 },
      "services": [ "Restaurant" ],
      "accommodation": [ ]
    },
    {
      "id": "F37",
      "name": "Beltroa",
      "type": "Village",
      "position": { "latitude": 39.64912, "longitude": -8.59805 },
      "services": [ ],
      "accommodation": [ ]
    },
    {
      "id": "F38",
      "name": "Ourém",
      "type": "Town",
      "position": { "latitude": 39.65694, "longitude": -8.57748 },
      "services": [ "Restaurant", "Groceries", "Pharmacy", "Bank" ],
      "accommodation": [ "GuestHouse" ]
    },
    {
      "id": "F39",
      "type": "Village",
      "name": "Vale Travesso",
      "position": { "latitude": 39.67272, "longitude": -8.55966 },
      "services": [ ],
      "accommodation": [ ]
    },
    {
      "id": "F40",
      "name": "Coroados",
      "type": "Village",
      "position": { "latitude": 39.66941, "longitude": -8.5367 },
      "services": [ "Restaurant" ],
      "accommodation": [ ]
    },
    {
      "id": "F41",
      "name": "Pombalinho",
      "type": "Village",
      "position": { "latitude": 39.6749, "longitude": -8.52471 },
      "services": [ "Restaurant", "Train" ],
      "accommodation": [ "GuestHouse" ]
    },
    {
      "id": "F42",
      "name": "Cogominho",
      "type": "Village",
      "position": { "latitude": 39.70175, "longitude": -8.52304 },
      "services": [ ],
      "accommodation": [ ]
    },
    {
      "id": "F43",
      "name": "Vendas",
      "type": "Village",
      "position": { "latitude": 39.7085, "longitude": -8.52642 },
      "services": [ ],
      "accommodation": [ ]
    },
    {
      "id": "F44",
      "name": "Calhorda",
      "type": "Village",
      "position": { "latitude": 39.71631, "longitude": -8.51447 },
      "services": [ "Restaurant" ],
      "accommodation": [ ]
    },
    {
      "id": "F45",
      "name": "Andrés",
      "type": "Village",
      "position": { "latitude": 39.72071, "longitude": -8.50673 },
      "services": [ ],
      "accommodation": [ ]
    },
    {
      "id": "F46",
      "name": "Casal do Pinhero",
      "type": "Village",
      "position": { "latitude": 39.75326, "longitude": -8.46002 },
      "services": [ "Restaurant" ],
      "accommodation": [ ]
    },
    {
      "id": "F47",
      "name": "Freixanda",
      "type": "Village",
      "position": { "latitude": 39.76227, "longitude": -8.4592 },
      "services": [ "Groceries" ],
      "accommodation": [ "GuestHouse" ]
    },
    {
      "id": "F48",
      "name": "Pelmá",
      "type": "Village",
      "position": { "latitude": 39.7671, "longitude": -8.45307 },
      "services": [ "Restaurant" ],
      "accommodation": [ ]
    },
    {
      "id": "F49",
      "name": "Aldeia da Serra",
      "type": "Village",
      "position": { "latitude": 39.78122, "longitude": -8.45785 },
      "services": [ ],
      "accommodation": [ ]
    },
    {
      "id": "F50",
      "name": "Charneca",
      "type": "Village",
      "position": { "latitude": 39.79158, "longitude": -8.46357 },
      "services": [ ],
      "accommodation": [ ]
    },
    {
      "id": "F51",
      "name": "Capela de Nossa Senhora da Graça",
      "type": "Poi",
      "position": { "latitude": 39.80135, "longitude": -8.45777 },
      "services": [ ],
      "accommodation": [ ]
    },
    {
      "id": "F52",
      "name": "Bofinho",
      "type": "Village",
      "position": { "latitude": 39.81381, "longitude": -8.43084 },
      "services": [ ],
      "accommodation": [ "PrivateAlbergue" ]
    },
    {
      "id": "F53",
      "name": "Vale da Couda",
      "type": "Village",
      "position": { "latitude": 39.84146, "longitude": -8.43498 },
      "services": [ ],
      "accommodation": [ ]
    },
    {
      "id": "F54",
      "name": "Santiago dos Ariques",
      "type": "Village",
      "position": { "latitude": 39.85843, "longitude": -8.43039 },
      "services": [ ],
      "accommodation": [ ]
    }

  ],
  "legs": [
    {
      "from": "P1",
      "to": "P2",
      "distance": 7.31,
      "ascent": 70,
      "descent": 85
    },
    {
      "from": "P2",
      "to": "P3",
      "distance": 5.40,
      "ascent": 20,
      "descent": 25
    },
    {
      "from": "P3",
      "to": "P4",
      "distance": 7.65,
      "ascent": 10,
      "descent": 5
    },
    {
      "from": "P4",
      "to": "P5",
      "distance": 1.97,
      "ascent": 20,
      "descent": 5
    },
    {
      "from": "P3",
      "to": "P6",
      "distance": 4.0,
      "ascent": 60,
      "descent": 20
    },
    {
      "from": "P6",
      "to": "P7",
      "distance": 2.6,
      "ascent": 25,
      "descent": 65
    },
    {
      "from": "P5",
      "to": "P8",
      "distance": 3.78,
      "ascent": 25,
      "descent": 5
    },
    {
      "from": "P7",
      "to": "P8",
      "distance": 3.2,
      "ascent": 10,
      "descent": 10
    },
    {
      "from": "P8",
      "to": "P9",
      "distance": 6.0,
      "ascent": 15,
      "descent": 15
    },
    {
      "from": "P9",
      "to": "P10",
      "distance": 3.06,
      "ascent": 35,
      "descent": 15
    },
    {
      "from": "P10",
      "to": "P11",
      "distance": 2.37,
      "ascent": 5,
      "descent": 30
    },
    {
      "from": "P11",
      "to": "P12",
      "distance": 3.86,
      "ascent": 5,
      "descent": 5
    },
    {
      "from": "P12",
      "to": "P13",
      "distance": 7.27,
      "ascent": 5,
      "descent": 5
    },
    {
      "from": "P13",
      "to": "P14",
      "distance": 4.72,
      "ascent": 5,
      "descent": 5
    },
    {
      "from": "P14",
      "to": "P15",
      "distance": 7.45,
      "ascent": 15,
      "descent": 15
    },
    {
      "from": "P15",
      "to": "P16",
      "distance": 10.7,
      "ascent": 10,
      "descent": 10
    },
    {
      "from": "P16",
      "to": "P17",
      "distance": 2.6,
      "ascent": 0,
      "descent": 0
    },
    {
      "from": "P17",
      "to": "P18",
      "distance": 3.4,
      "ascent": 0,
      "descent": 0
    },
    {
      "from": "P18",
      "to": "P19",
      "distance": 13.87,
      "ascent": 5,
      "descent": 0
    },
    {
      "from": "P19",
      "to": "P20",
      "distance": 1.96,
      "ascent": 100,
      "descent": 0
    },
    {
      "from": "P20",
      "to": "P21",
      "distance": 1.54,
      "ascent": 15,
      "descent": 100
    },
    {
      "from": "P21",
      "to": "P22",
      "distance": 9.94,
      "ascent": 55,
      "descent": 5
    },
    {
      "from": "P22",
      "to": "P23",
      "distance": 11.97,
      "ascent": 10,
      "descent": 60
    },
    {
      "from": "P23",
      "to": "P24",
      "distance": 7.51,
      "ascent": 25,
      "descent": 25
    },
    {
      "from": "P24",
      "to": "P25",
      "distance": 5.97,
      "ascent": 20,
      "descent": 20
    },
    {
      "from": "P25",
      "to": "P26",
      "distance": 2.93,
      "ascent": 10,
      "descent": 10
    },
    {
      "from": "P26",
      "to": "P27",
      "distance": 1.93,
      "ascent": 25,
      "descent": 0
    },
    {
      "from": "P27",
      "to": "P28",
      "distance": 6.92,
      "ascent": 175,
      "descent": 90
    },
    {
      "from": "P28",
      "to": "P29",
      "distance": 1.51,
      "ascent": 15,
      "descent": 85
    },
    {
      "from": "P29",
      "to": "P30",
      "distance": 2.58,
      "ascent": 20,
      "descent": 50
    },
    {
      "from": "P30",
      "to": "P31",
      "distance": 3.46,
      "ascent": 30,
      "descent": 40
    },
    {
      "from": "P31",
      "to": "P32",
      "distance": 5.03,
      "ascent": 75,
      "descent": 45
    },
    {
      "from": "P32",
      "to": "P33",
      "distance": 3.22,
      "ascent": 30,
      "descent": 30
    },
    {
      "from": "P33",
      "to": "P34",
      "distance": 4.38,
      "ascent": 130,
      "descent": 30
    },
    {
      "from": "P34",
      "to": "P35",
      "distance": 1.0,
      "ascent": 50,
      "descent": 10
    },
    {
      "from": "P35",
      "to": "P36",
      "distance": 2.33,
      "ascent": 90,
      "descent": 30
    },
    {
      "from": "P36",
      "to": "P37",
      "distance": 1.29,
      "ascent": 10,
      "descent": 70
    },
    {
      "from": "P37",
      "to": "P38",
      "distance": 1.36,
      "ascent": 30,
      "descent": 30
    },
    {
      "from": "P38",
      "to": "P39",
      "distance": 0.75,
      "ascent": 10,
      "descent": 10
    },
    {
      "from": "P39",
      "to": "P40",
      "distance": 1.64,
      "ascent": 120,
      "descent": 20
    },
    {
      "from": "P40",
      "to": "P41",
      "distance": 0.47,
      "ascent": 10,
      "descent": 10
    },
    {
      "from": "P41",
      "to": "P42",
      "distance": 2.76,
      "ascent": 20,
      "descent": 20
    },
    {
      "from": "P42",
      "to": "P43",
      "distance": 3.00,
      "ascent": 80,
      "descent": 60
    },
    {
      "from": "P43",
      "to": "P44",
      "distance": 3.29,
      "ascent": 25,
      "descent": 5
    },
    {
      "from": "P44",
      "to": "P45",
      "distance": 0.50,
      "ascent": 10,
      "descent": 0
    },
    {
      "from": "P45",
      "to": "P46",
      "distance": 0.80,
      "ascent": 30,
      "descent": 5
    },
    {
      "from": "P46",
      "to": "P47",
      "distance": 1.66,
      "ascent": 45,
      "descent": 5
    },
    {
      "from": "P47",
      "to": "P48",
      "distance": 1.15,
      "ascent": 30,
      "descent": 0
    },
    {
      "from": "P48",
      "to": "P49",
      "distance": 1.15,
      "ascent": 40,
      "descent": 30
    },
    {
      "from": "P49",
      "to": "P50",
      "distance": 2.38,
      "ascent": 60,
      "descent": 10
    },
     {
      "from": "P50",
      "to": "P51",
      "distance": 1.13,
      "ascent": 95,
      "descent": 0
    },
    {
      "from": "P51",
      "to": "P52",
      "distance": 3.01,
      "ascent": 10,
      "descent": 120
    },
    {
      "from": "P52",
      "to": "P53",
      "distance": 2.86,
      "ascent": 50,
      "descent": 35
    },
    {
      "from": "P53",
      "to": "P54",
      "distance": 1.42,
      "ascent": 0,
      "descent": 80
    },
    {
      "from": "P54",
      "to": "P55",
      "distance": 1.94,
      "ascent": 5,
      "descent": 85
    },
    {
      "from": "P55",
      "to": "P56",
      "distance": 3.93,
      "ascent": 70,
      "descent": 15
    },
    {
      "from": "P56",
      "to": "P57",
      "distance": 2.31,
      "ascent": 35,
      "descent": 10
    },
    {
      "from": "P57",
      "to": "P58",
      "distance": 0.45,
      "ascent": 0,
      "descent": 10
    },
    {
      "from": "P58",
      "to": "P59",
      "distance": 1.65,
      "ascent": 10,
      "descent": 25
    },
    {
      "from": "P59",
      "to": "P60",
      "distance": 1.61,
      "ascent": 45,
      "descent": 10
    },
    {
      "from": "P60",
      "to": "P61",
      "distance": 5.11,
      "ascent": 5,
      "descent": 100
    },
    {
      "from": "P61",
      "to": "P62",
      "distance": 3.78,
      "ascent": 0,
      "descent": 15
    },
    {
      "from": "P62",
      "to": "P63",
      "distance": 3.32,
      "ascent": 15,
      "descent": 30
    },
    {
      "from": "P63",
      "to": "P64",
      "distance": 2.17,
      "ascent": 10,
      "descent": 30
    },
    {
      "from": "P64",
      "to": "P65",
      "distance": 1.91,
      "ascent": 15,
      "descent": 20
    },
    {
      "from": "P65",
      "to": "P66",
      "distance": 3.12,
      "ascent": 25,
      "descent": 60
    },
    {
      "from": "P66",
      "to": "P67",
      "distance": 1.10,
      "ascent": 15,
      "descent": 10
    },
    {
      "from": "P67",
      "to": "P68",
      "distance": 0.77,
      "ascent": 5,
      "descent": 15
    },
    {
      "from": "P68",
      "to": "P69",
      "distance": 0.90,
      "ascent": 0,
      "descent": 0
    },
    {
      "from": "P69",
      "to": "P70",
      "distance": 1.47,
      "ascent": 5,
      "descent": 20
    },
    {
      "from": "P70",
      "to": "P71",
      "distance": 0.70,
      "ascent": 30,
      "descent": 20
    },
    {
      "from": "P71",
      "to": "P72",
      "distance": 1.45,
      "ascent": 5,
      "descent": 5
    },
    {
      "from": "P72",
      "to": "P73",
      "distance": 1.42,
      "ascent": 30,
      "descent": 5
    },
    {
      "from": "P73",
      "to": "P74",
      "distance": 3.14,
      "ascent": 60,
      "descent": 45
    },
    {
      "from": "P74",
      "to": "P75",
      "distance": 1.27,
      "ascent": 50,
      "descent": 35
    },
    {
      "from": "P75",
      "to": "P76",
      "distance": 1.05,
      "ascent": 40,
      "descent": 5
    },
    {
      "from": "P76",
      "to": "P77",
      "distance": 1.70,
      "ascent": 30,
      "descent": 115
    },
    {
      "from": "P77",
      "to": "P78",
      "distance": 2.92,
      "ascent": 30,
      "descent": 115
    },
    {
      "from": "P78",
      "to": "P79",
      "distance": 5.92,
      "ascent": 5,
      "descent": 10
    },
    {
      "from": "P79",
      "to": "P80",
      "distance": 1.96,
      "ascent": 0,
      "descent": 0
    },
    {
      "from": "P80",
      "to": "P81",
      "distance": 1.27,
      "ascent": 75,
      "descent": 0
    },
    {
      "from": "P81",
      "to": "P82",
      "distance": 0.92,
      "ascent": 10,
      "descent": 10
    },
    {
      "from": "P82",
      "to": "P83",
      "distance": 1.12,
      "ascent": 0,
      "descent": 5
    },
    {
      "from": "P83",
      "to": "P84",
      "distance": 1.86,
      "ascent": 50,
      "descent": 0
    },
    {
      "from": "P84",
      "to": "P85",
      "distance": 4.27,
      "ascent": 0,
      "descent": 50
    },
    {
      "from": "P85",
      "to": "P86",
      "distance": 1.21,
      "ascent": 15,
      "descent": 30
    },
    {
      "from": "P86",
      "to": "P87",
      "distance": 1.28,
      "ascent": 25,
      "descent": 10
    },
    {
      "from": "P87",
      "to": "P88",
      "distance": 3.26,
      "ascent": 5,
      "descent": 50
    },
    {
      "from": "P88",
      "to": "P89",
      "distance": 1.68,
      "ascent": 10,
      "descent": 10
    },
    {
      "from": "P89",
      "to": "P90",
      "distance": 1.78,
      "ascent": 15,
      "descent": 5
    },
    {
      "from": "P90",
      "to": "P91",
      "distance": 1.47,
      "ascent": 15,
      "descent": 0
    },
    {
      "from": "P91",
      "to": "P92",
      "distance": 3.45,
      "ascent": 155,
      "descent": 190
    },
    {
      "from": "P92",
      "to": "P93",
      "distance": 0.85,
      "ascent": 5,
      "descent": 5
    },
    {
      "from": "P93",
      "to": "P94",
      "distance": 0.95,
      "ascent": 10,
      "descent": 0
    },
    {
      "from": "P94",
      "to": "P95",
      "distance": 3.38,
      "ascent": 20,
      "descent": 35
    },
    {
      "from": "P95",
      "to": "P96",
      "distance": 2.00,
      "ascent": 10,
      "descent": 10
    },
    {
      "from": "P96",
      "to": "P97",
      "distance": 2.03,
      "ascent": 25,
      "descent": 15
    },
    {
      "from": "P97",
      "to": "P98",
      "distance": 0.75,
      "ascent": 0,
      "descent": 20
    },
    {
      "from": "P98",
      "to": "P99",
      "distance": 4.47,
      "ascent": 50,
      "descent": 10
    },
    {
      "from": "P99",
      "to": "P100",
      "distance": 1.39,
      "ascent": 10,
      "descent": 45
    },
    {
      "from": "P100",
      "to": "P101",
      "distance": 0.88,
      "ascent": 5,
      "descent": 5
    },
    {
      "from": "P101",
      "to": "P102",
      "distance": 0.58,
      "ascent": 25,
      "descent": 5
    },
    {
      "from": "P102",
      "to": "P103",
      "distance": 0.64,
      "ascent": 15,
      "descent": 10
    },
    {
      "from": "P103",
      "to": "P104",
      "distance": 3.80,
      "ascent": 50,
      "descent": 10
    },
    {
      "from": "P104",
      "to": "P105",
      "distance": 1.71,
      "ascent": 0,
      "descent": 10
    },
    {
      "from": "P105",
      "to": "P106",
      "distance": 1.84,
      "ascent": 5,
      "descent": 65
    },
    {
      "from": "P106",
      "to": "P107",
      "distance": 1.41,
      "ascent": 15,
      "descent": 0
    },
    {
      "from": "P107",
      "to": "P108",
      "distance": 0.95,
      "ascent": 65,
      "descent": 0
    },
    {
      "from": "P108",
      "to": "P109",
      "distance": 5.20,
      "ascent": 25,
      "descent": 0
    },


    {
      "from": "P20",
      "to": "F1",
      "distance": 7.8,
      "ascent": 35,
      "descent": 110
    },
    {
      "from": "F1",
      "to": "F2",
      "distance": 9.8,
      "ascent": 145,
      "descent": 55
    },
    {
      "from": "F2",
      "to": "F3",
      "distance": 3.4,
      "ascent": 35,
      "descent": 90
    },
    {
      "from": "F3",
      "to": "F4",
      "distance": 7.4,
      "ascent": 100,
      "descent": 45
    },
    {
      "from": "F4",
      "to": "F5",
      "distance": 4.3,
      "ascent": 75,
      "descent": 50
    },
    {
      "from": "F5",
      "to": "F6",
      "distance": 4.3,
      "ascent": 85,
      "descent": 70
    },
    {
      "from": "F6",
      "to": "F7",
      "distance": 3.0,
      "ascent": 230,
      "descent": 210
    },
    {
      "from": "F7",
      "to": "F8",
      "distance": 2.1,
      "ascent": 140,
      "descent": 0
    },
    {
      "from": "F8",
      "to": "F9",
      "distance": 12.2,
      "ascent": 195,
      "descent": 170
    },
    {
      "from": "F9",
      "to": "F10",
      "distance": 3.1,
      "ascent": 10,
      "descent": 25
    },
    {
      "from": "F10",
      "to": "F11",
      "distance": 3.6,
      "ascent": 0,
      "descent": 125
    },
    {
      "from": "F11",
      "to": "F12",
      "distance": 3.4,
      "ascent": 30,
      "descent": 30
    },
    {
      "from": "F12",
      "to": "F13",
      "distance": 4.1,
      "ascent": 45,
      "descent": 35
    },
    {
      "from": "F13",
      "to": "F14",
      "distance": 4.9,
      "ascent": 45,
      "descent": 160
    },
    {
      "from": "F14",
      "to": "F15",
      "distance": 5.5,
      "ascent": 125,
      "descent": 110
    },
    {
      "from": "F15",
      "to": "P32",
      "distance": 5.1,
      "ascent": 50,
      "descent": 120
    },

    {
      "from": "F10",
      "to": "F16",
      "distance": 4.6,
      "ascent": 70,
      "descent": 170
    },
    {
      "from": "F16",
      "to": "F17",
      "distance": 2.0,
      "ascent": 20,
      "descent": 80
    },
    {
      "from": "F17",
      "to": "F18",
      "distance": 1.5,
      "ascent": 35,
      "descent": 10
    },
    {
      "from": "F18",
      "to": "F19",
      "distance": 1.3,
      "ascent": 0,
      "descent": 45
    },
    {
      "from": "F19",
      "to": "F20",
      "distance": 1.5,
      "ascent": 80,
      "descent": 0
    },
    {
      "from": "F20",
      "to": "F21",
      "distance": 1.6,
      "ascent": 0,
      "descent": 30
    },
    {
      "from": "F21",
      "to": "F22",
      "distance": 2.4,
      "ascent": 5,
      "descent": 15
    },
    {
      "from": "F22",
      "to": "F23",
      "distance": 1.3,
      "ascent": 5,
      "descent": 80
    },
    {
      "from": "F23",
      "to": "F24",
      "distance": 2.3,
      "ascent": 80,
      "descent": 85
    },
    {
      "from": "F24",
      "to": "F25",
      "distance": 1.3,
      "ascent": 10,
      "descent": 0
    },
    {
      "from": "F25",
      "to": "F26",
      "distance": 4.7,
      "ascent": 5,
      "descent": 25
    },
    {
      "from": "F25",
      "to": "F27",
      "distance": 3.5,
      "ascent": 100,
      "descent": 60
    },
    {
      "from": "F26",
      "to": "F28",
      "distance": 3.3,
      "ascent": 45,
      "descent": 0
    },
    {
      "from": "F27",
      "to": "F28",
      "distance": 1.5,
      "ascent": 15,
      "descent": 30
    },
    {
      "from": "F28",
      "to": "F29",
      "distance": 1.0,
      "ascent": 30,
      "descent": 30
    },
    {
      "from": "F29",
      "to": "F30",
      "distance": 3.1,
      "ascent": 55,
      "descent": 45
    },
    {
      "from": "F30",
      "to": "F31",
      "distance": 2.8,
      "ascent": 25,
      "descent": 5
    },
    {
      "from": "F31",
      "to": "F32",
      "distance": 4.4,
      "ascent": 40,
      "descent": 100
    },
    {
      "from": "F32",
      "to": "F33",
      "distance": 3.4,
      "ascent": 55,
      "descent": 0
    },

    {
      "from": "F11",
      "to": "F35",
      "distance": 1.2,
      "ascent": 40,
      "descent": 0
    },
    {
      "from": "F35",
      "to": "F36",
      "distance": 2.9,
      "ascent": 0,
      "descent": 110
    },
    {
      "from": "F36",
      "to": "F37",
      "distance": 1.5,
      "ascent": 25,
      "descent": 20
    },
    {
      "from": "F37",
      "to": "F38",
      "distance": 2.3,
      "ascent": 15,
      "descent": 15
    },
    {
      "from": "F38",
      "to": "F39",
      "distance": 3.1,
      "ascent": 90,
      "descent": 40
    },
    {
      "from": "F39",
      "to": "F40",
      "distance": 2.7,
      "ascent": 40,
      "descent": 120
    },
    {
      "from": "F40",
      "to": "F41",
      "distance": 1.2,
      "ascent": 0,
      "descent": 20
    },
    {
      "from": "F41",
      "to": "F42",
      "distance": 4.4,
      "ascent": 55,
      "descent": 50
    },
    {
      "from": "F42",
      "to": "F43",
      "distance": 0.95,
      "ascent": 20,
      "descent": 5
    },
    {
      "from": "F43",
      "to": "F44",
      "distance": 1.9,
      "ascent": 0,
      "descent": 20
    },
    {
      "from": "F44",
      "to": "F45",
      "distance": 1.1,
      "ascent": 5,
      "descent": 5
    },
    {
      "from": "F45",
      "to": "F26",
      "distance": 1.5,
      "ascent": 10,
      "descent": 5
    },
    {
      "from": "F26",
      "to": "F46",
      "distance": 5.2,
      "ascent": 50,
      "descent": 55
    },
    {
      "from": "F46",
      "to": "F47",
      "distance": 1.1,
      "ascent": 0,
      "descent": 5
    },
    {
      "from": "F47",
      "to": "F48",
      "distance": 1.4,
      "ascent": 5,
      "descent": 10
    },
    {
      "from": "F48",
      "to": "F49",
      "distance": 1.9,
      "ascent": 20,
      "descent": 0
    },
    {
      "from": "F49",
      "to": "F50",
      "distance": 1.3,
      "ascent": 0,
      "descent": 15
    },
    {
      "from": "F50",
      "to": "F51",
      "distance": 1.2,
      "ascent": 35,
      "descent": 0
    },
    {
      "from": "F51",
      "to": "F52",
      "distance": 3.7,
      "ascent": 50,
      "descent": 10
    },
    {
      "from": "F52",
      "to": "F53",
      "distance": 3.5,
      "ascent": 90,
      "descent": 35
    },
    {
      "from": "F53",
      "to": "F54",
      "distance": 2.2,
      "ascent": 45,
      "descent": 5
    },
    {
      "from": "F54",
      "to": "P52",
      "distance": 1.9,
      "ascent": 55,
      "descent": 0
    },

    {
      "from": "F33",
      "to": "F54",
      "distance": 2.2,
      "ascent": 105,
      "descent": 5
    }

  ],
  "routes": [
    {
      "id": "Fatima",
      "name": "Fátima",
      "locations": [ 
        "F1", "F2", "F3", "F4", "F5", "F6", "F7", "F8", "F9", "F10",
        "F11", "F12", "F13", "F14", "F15", "F16", "F17", "F18", "F19", "F20",
        "F21", "F22", "F23", "F24", "F25", "F26", "F27", "F28", "F29", "F30",
        "F31", "F32", "F33", "F35", "F36", "F37", "F38", "F39", "F40",
        "F41", "F42", "F43", "F44", "F45", "F46", "F47", "F48", "F49", "F50",
        "F51", "F52", "F53", "F54"
      ],
      "palette": {
        "colour": "2a78ff"
      }
    }
  ],
  "palette": {
    "colour": "fec953"
  }
}